{
  "type": "FeatureCollection",
  "features": [
    {
      "type": "Feature",
      "properties": {
        "name": "Gravensteen",
        "description": "Middeleeuwse burcht uit de 12e eeuw, symbool van de grafelijke macht.",
        "order": 1
      },
      "geometry": {
        "type": "Point",
        "coordinates": [3.721429, 51.05693]
      }
    },
    {
      "type": "Feature",
      "properties": {
        "name": "Vrijdagmarkt",
        "description": "Historisch plein waar belangrijke volksvergaderingen en markten plaatsvonden.",
        "order": 2
      },
      "geometry": {
        "type": "Point",
        "coordinates": [3.725682, 51.056887]
      }
    },
    {
      "type": "Feature",
      "properties": {
        "name": "Stadhuis van Gent",
        "description": "Een uniek gebouw met zowel een laat-gotische als een renaissance-gevel.",
        "order": 3
      },
      "geometry": {
        "type": "Point",
        "coordinates": [3.725337, 51.054501]
      }
    },
    {
      "type": "Feature",
      "properties": {
        "name": "Sint-Baafskathedraal",
        "description": "De thuishaven van het Lam Gods en een meesterwerk van de Brabantse gotiek.",
        "order": 4
      },
      "geometry": {
        "type": "Point",
        "coordinates": [3.726961, 51.053007]
      }
    },
    {
      "type": "Feature",
      "properties": {
        "name": "Graslei en Korenlei",
        "description": "De oude middeleeuwse haven met de best bewaarde gildehuizen van de stad.",
        "order": 5
      },
      "geometry": {
        "type": "Point",
        "coordinates": [3.720725, 51.054782]
      }
    },
    {
      "type": "Feature",
      "properties": {
        "name": "Historische Wandeling Gent",
        "description": "Route langs de kernmomenten van de Gentse geschiedenis"
      },
      "geometry": {
        "type": "LineString",
        "coordinates": [
          [3.721429, 51.05693],
          [3.725682, 51.056887],
          [3.725337, 51.054501],
          [3.726961, 51.053007],
          [3.720725, 51.054782]
        ]
      }
    }
  ]
}